{
  "generated_at": "2026-05-10T05:47:06.737856+00:00",
  "count": 9,
  "reports": [
    {
      "id": 16,
      "lat": 52.374320775249885,
      "lon": 4.883672445926901,
      "problem_type": "trash",
      "criticality": 3,
      "rationale": "A single e-scooter visible just below the surface.",
      "canal_name": "Prinsengracht",
      "created_at": "2026-05-09T04:58:42.686425+00:00"
    },
    {
      "id": 19,
      "lat": 52.36849906969749,
      "lon": 4.894420125258259,
      "problem_type": "trash",
      "criticality": 1,
      "rationale": "A single plastic bottle drifting along the embankment.",
      "canal_name": "Grimburgwal",
      "created_at": "2026-05-09T02:18:58.613767+00:00"
    },
    {
      "id": 22,
      "lat": 52.36240228591811,
      "lon": 4.897572912191828,
      "problem_type": "other",
      "criticality": 3,
      "rationale": "Unusually milky-grey water near a drainage outflow.",
      "canal_name": "Prinsengracht",
      "created_at": "2026-05-08T14:13:20.445732+00:00"
    },
    {
      "id": 26,
      "lat": 52.37406452403599,
      "lon": 4.883566050121952,
      "problem_type": "blooming",
      "criticality": 5,
      "rationale": "Surface entirely covered in green-blue scum — full bloom.",
      "canal_name": "Prinsengracht",
      "created_at": "2026-05-07T23:36:02.516561+00:00"
    },
    {
      "id": 20,
      "lat": 52.37109835818841,
      "lon": 4.9013737471831735,
      "problem_type": "trash",
      "criticality": 3,
      "rationale": "Shopping cart half-submerged near the bridge piling.",
      "canal_name": "Krom Boomssloot",
      "created_at": "2026-05-05T23:27:32.798996+00:00"
    },
    {
      "id": 24,
      "lat": 52.362385087587185,
      "lon": 4.8979009101567295,
      "problem_type": "petroleum",
      "criticality": 2,
      "rationale": "Iridescent rainbow sheen across a moderate area near a moored boat.",
      "canal_name": "Prinsengracht",
      "created_at": "2026-05-05T10:07:44.032533+00:00"
    },
    {
      "id": 33,
      "lat": 52.37112907887717,
      "lon": 4.900951622658051,
      "problem_type": "blooming",
      "criticality": 4,
      "rationale": "Dense surface mat covering roughly a third of the visible water.",
      "canal_name": "Snoekjesgracht",
      "created_at": "2026-05-05T03:41:31.141794+00:00"
    },
    {
      "id": 32,
      "lat": 52.364192394225064,
      "lon": 4.902125438899796,
      "problem_type": "trash",
      "criticality": 3,
      "rationale": "A single e-scooter visible just below the surface.",
      "canal_name": "Keizersgracht",
      "created_at": "2026-05-04T19:55:31.330980+00:00"
    },
    {
      "id": 23,
      "lat": 52.36754006311252,
      "lon": 4.8926767051511835,
      "problem_type": "blooming",
      "criticality": 2,
      "rationale": "Patches of greenish water near the houseboat moorings.",
      "canal_name": "Rokin",
      "created_at": "2026-05-04T08:59:05.700558+00:00"
    }
  ]
}